,City,Cloudiness,Country,Date,Humidity,Lat,Lng,Max Temp,Wind Speed
0,nikolskoye,90,RU,1603400985,93,59.7,30.79,9.44,3.0
1,busselton,0,AU,1603400966,66,-33.65,115.33,10.0,4.57
2,victoria,100,HK,1603400964,46,22.29,114.16,21.67,5.81
3,mount gambier,30,GB,1603401006,84,53.66,-1.85,7.78,0.45
4,cape town,0,CL,1603400694,24,-36.41,-71.9,26.0,3.1
5,rikitea,100,PF,1603400783,79,-23.12,-134.97,23.56,6.46
6,new norfolk,75,LR,1603400737,94,6.65,-10.59,25.0,1.01
7,castro,11,BR,1603400968,70,-24.79,-50.01,20.16,4.38
8,carnarvon,0,AU,1603400988,88,-24.87,113.63,19.0,6.7
9,palmer,20,US,1603401078,50,42.16,-72.33,26.0,2.1
10,arlit,0,NE,1603401079,12,18.74,7.39,32.03,4.23
11,namibe,71,AO,1603400824,83,-15.2,12.15,21.28,1.69
12,upernavik,100,GL,1603401079,97,72.79,-56.15,-3.76,4.1
13,punta arenas,100,PH,1603400869,81,8.99,125.34,25.6,1.66
14,tasiilaq,100,GL,1603401079,51,65.61,-37.64,3.0,14.4
15,longyearbyen,20,SJ,1603400978,78,78.22,15.64,-8.0,3.6
16,yellowknife,75,CA,1603400969,73,62.46,-114.35,-3.33,4.1
17,ushuaia,40,AR,1603400964,57,-54.8,-68.3,9.0,10.3
18,ust-nera,100,RU,1603401023,91,64.57,143.2,-8.36,2.38
19,mataura,92,NZ,1603400977,61,-46.19,168.86,15.56,3.13
20,deputatskiy,0,RU,1603401080,89,69.3,139.9,-18.0,0.94
21,san andres,27,ML,1603401017,31,13.3,-4.9,31.28,3.09
22,airai,62,TL,1603401080,100,-8.93,125.41,15.88,0.54
23,baculin,100,PH,1603401080,74,7.45,126.58,26.09,1.91
24,port alfred,12,CD,1603400964,61,-7.03,29.76,25.52,2.07
25,peruibe,30,BR,1603401080,87,-24.32,-47.0,21.85,5.0
26,rosarito,20,MX,1603401080,53,32.33,-117.03,23.0,4.6
27,sangamner,1,IN,1603401081,81,19.57,74.22,23.44,1.31
28,itoman,75,JP,1603400998,88,26.12,127.67,22.0,13.4
29,kununurra,75,AU,1603400986,88,-15.77,128.73,26.0,3.1
30,faanui,5,PF,1603400994,75,-16.48,-151.75,26.1,4.4
31,shimoda,100,JP,1603400593,94,34.67,138.95,15.0,3.18
32,butaritari,39,KI,1603400965,79,3.07,172.79,27.58,6.28
33,ahipara,74,NZ,1603400991,85,-35.17,173.17,17.7,3.14
34,pisco,0,PE,1603400818,68,-13.7,-76.22,20.0,11.3
35,saskylakh,93,RU,1603400972,93,71.92,114.08,-15.73,5.21
36,iquitos,75,PE,1603401044,66,-3.75,-73.25,30.0,3.1
37,cherskiy,100,RU,1603400976,93,68.75,161.3,-8.47,1.31
38,bontang,44,ID,1603400699,89,0.13,117.5,24.79,2.53
39,mys shmidta,21,RU,1603400983,97,62.06,48.62,-6.96,1.49
40,hilo,1,US,1603400785,58,19.73,-155.09,30.0,4.1
41,belaya gora,65,UA,1603401082,72,49.03,25.77,11.11,0.89
42,kaitangata,96,NZ,1603400984,58,-46.28,169.85,14.33,1.99
43,sobolevo,2,RU,1603401082,88,54.43,31.9,10.73,7.1
44,zhangjiakou,0,CN,1603401082,77,40.81,114.88,0.27,1.63
45,anadyr,75,RU,1603400792,69,64.75,177.48,3.0,2.0
46,grand gaube,1,US,1603400984,11,38.88,-109.5,26.67,7.2
47,ambon,13,ID,1603401083,79,-3.7,128.18,26.82,1.44
48,inirida,72,CO,1603401083,62,3.87,-67.92,31.91,0.66
49,havelock,40,US,1603401083,61,34.88,-76.9,26.0,6.7
50,cabinda,96,AO,1603401083,84,-5.55,12.2,25.35,4.0
51,salalah,0,OM,1603400991,65,17.02,54.09,26.0,2.6
52,gushikawa,90,JP,1603401083,83,26.35,127.87,22.0,7.7
53,macau,20,MO,1603401083,56,22.2,113.55,23.0,10.8
54,banda aceh,19,IN,1603401083,39,25.48,80.33,23.96,1.0
55,valley city,1,US,1603401083,38,45.13,-116.13,4.0,4.1
56,luderitz,0,NA,1603400994,82,-26.65,15.16,15.18,3.95
57,gangapur,0,IN,1603401084,38,26.48,76.72,23.14,0.99
58,college,20,US,1603400829,78,64.86,-147.8,-3.33,2.1
59,albany,59,US,1603400788,70,42.6,-73.97,20.56,1.06
60,jamestown,75,US,1603400808,77,42.1,-79.24,21.0,1.5
61,dikson,88,RU,1603400980,96,73.51,80.55,-4.13,1.37
62,barrow,90,US,1603400943,93,71.29,-156.79,2.0,6.2
63,hobart,40,AU,1603400948,76,-42.88,147.33,12.22,2.6
64,bambous virieux,75,MU,1603400971,88,-20.26,57.41,22.0,3.6
65,kangaatsiaq,33,GL,1603400433,94,68.31,-53.46,-1.25,1.43
66,bangangte,93,CM,1603401085,100,5.14,10.52,17.09,1.84
67,grindavik,90,IS,1603400322,75,63.84,-22.43,6.0,13.4
68,touros,40,BR,1603400826,78,-5.2,-35.46,27.0,4.6
69,sitka,40,US,1603400969,38,57.05,-135.33,4.0,4.1
70,bluff,100,NZ,1603400800,61,-46.6,168.33,15.56,3.13
71,atuona,25,PF,1603400787,72,-9.8,-139.03,25.56,7.54
72,klaksvik,100,FO,1603400791,75,62.23,-6.59,5.0,6.2
73,lebu,99,CL,1603400972,75,-37.62,-73.65,11.52,5.27
74,iwanai,100,JP,1603401085,89,42.97,140.51,14.25,3.21
75,avarua,99,CK,1603400809,83,-21.21,-159.78,25.0,6.2
76,olafsvik,100,IS,1603401086,69,64.89,-23.71,5.52,13.05
77,yeppoon,40,AU,1603400688,78,-23.13,150.73,23.0,3.1
78,pangkalanbuun,0,ID,1603401045,96,-2.68,111.62,23.51,0.63
79,vao,100,NC,1603400824,87,-22.67,167.48,23.18,7.09
80,tuktoyaktuk,90,CA,1603400822,92,69.45,-133.04,-5.0,8.2
81,aklavik,90,CA,1603400625,85,68.22,-135.01,-6.0,2.6
82,kapaa,40,US,1603400784,69,22.08,-159.32,28.0,5.1
83,jambi,100,ID,1603401086,96,-1.6,103.62,23.6,0.21
84,high level,42,US,1603401086,54,33.61,-95.75,30.56,5.06
85,ponta do sol,75,PT,1603400966,82,38.73,-28.27,17.0,4.1
86,ilula,47,TZ,1603401087,65,-7.68,36.04,19.17,3.99
87,somerset east,90,US,1603401087,83,40.57,-74.55,21.67,1.78
88,udachnyy,90,RU,1603401014,92,66.42,112.4,-8.0,4.0
89,haverfordwest,7,GB,1603401087,87,51.8,-4.97,8.89,1.5
90,cayenne,68,GF,1603401087,70,4.93,-52.33,30.0,3.1
91,terrace,75,CA,1603400639,74,54.52,-128.6,3.0,3.1
92,lompoc,90,US,1603401030,77,34.64,-120.46,18.0,3.14
93,teguldet,77,RU,1603401087,93,57.31,88.17,0.55,3.74
94,kysyl-syr,31,RU,1603400665,95,63.9,122.76,-10.2,3.55
95,aitape,40,PG,1603401088,72,-3.14,142.35,24.82,1.6
96,hithadhoo,13,MV,1603400979,75,-0.6,73.08,28.37,7.03
97,kruisfontein,0,ZA,1603401088,88,-34.0,24.73,16.67,0.45
98,arbazh,62,RU,1603401037,95,57.68,48.31,-2.61,2.02
99,guerrero negro,86,MX,1603400980,68,17.67,-100.0,25.16,1.17
100,san jose,27,ML,1603401014,31,13.3,-4.9,31.28,3.09
101,beisfjord,75,NO,1603401088,86,68.38,17.6,-1.0,3.6
102,cananeia,50,BR,1603401089,88,-25.01,-47.93,21.72,4.28
103,lasa,40,IT,1603401089,93,46.62,10.7,10.56,2.6
104,hambantota,0,LK,1603400461,100,6.12,81.12,25.0,3.1
105,dunedin,85,NZ,1603400824,75,-45.87,170.5,14.44,1.79
106,coquimbo,75,CL,1603400500,76,-29.95,-71.34,14.0,5.1
107,monrovia,75,LR,1603401089,94,6.3,-10.8,25.0,2.92
108,bengkulu,100,ID,1603401058,75,-3.8,102.27,24.53,1.61
109,bengbu,0,CN,1603401090,47,32.94,117.36,10.39,2.31
110,pamanukan,96,ID,1603401090,78,-6.28,107.81,27.07,1.83
111,husavik,75,IS,1603400984,65,66.04,-17.34,5.0,2.1
112,kamaishi,100,JP,1603400996,85,39.27,141.88,16.07,2.45
113,rangpur,93,BD,1603401090,92,25.75,89.25,23.63,1.32
114,chuy,100,UY,1603400967,85,-33.7,-53.46,15.73,6.62
115,lao cai,98,PH,1603401090,81,11.02,124.56,26.98,1.62
116,chapais,75,CA,1603400992,95,49.78,-74.85,0.0,1.5
117,vaini,40,TO,1603400977,73,-21.2,-175.2,25.0,3.6
118,avera,75,US,1603400993,61,33.19,-82.53,27.0,3.1
119,san cristobal,27,ML,1603400977,31,13.3,-4.9,31.28,3.09
120,bredasdorp,68,ZA,1603400969,88,-34.53,20.04,18.0,2.1
121,qaanaaq,100,GL,1603400975,94,77.48,-69.36,-7.67,0.7
122,baykit,100,RU,1603401002,87,61.67,96.37,2.99,6.01
123,puerto ayora,20,ES,1603400968,82,36.59,-6.23,18.0,3.6
124,cabo san lucas,75,BR,1603400851,78,-8.28,-35.03,27.0,4.6
125,cockburn town,100,AU,1603401023,56,-32.08,141.0,20.0,3.1
126,ostrovnoy,100,RU,1603400994,95,68.05,39.51,-0.88,6.07
127,saldanha,56,ZA,1603400987,77,-33.01,17.94,16.0,4.1
128,yelatma,100,RU,1603401092,93,54.97,41.75,4.51,5.14
129,bathsheba,75,BB,1603401092,70,13.22,-59.52,30.0,6.7
130,altay,99,CN,1603400499,55,47.87,88.12,5.16,1.61
131,constitucion,5,CL,1603400877,65,-35.33,-72.42,14.99,6.52
132,narsaq,20,GL,1603400814,58,60.92,-46.05,-4.0,3.6
133,kerema,100,PG,1603401092,88,-7.96,145.78,25.1,2.07
134,tuatapere,100,NZ,1603400642,61,-46.13,167.68,15.56,3.13
135,aksaray,0,TR,1603400875,66,38.37,34.03,12.0,1.0
136,yining,0,CN,1603401092,79,29.04,114.56,11.15,0.81
137,vardo,75,NO,1603401092,69,70.37,31.11,4.0,13.4
138,tanout,0,NE,1603400692,13,14.97,8.89,30.23,4.46
139,mahebourg,75,MU,1603401014,88,-20.41,57.7,22.0,3.6
140,vestmannaeyjar,99,IS,1603400965,87,63.44,-20.27,6.72,22.49
141,worthington,40,US,1603400975,54,40.09,-83.02,26.67,3.1
142,lagoa,21,PT,1603400995,71,39.05,-27.98,18.28,5.0
143,choma,0,ZM,1603401093,39,-16.81,26.95,21.73,2.15
144,victor harbor,99,US,1603400833,96,42.98,-77.41,13.33,2.87
145,yulara,0,AU,1603400494,68,-25.24,130.99,19.0,6.2
146,tagbac,75,PH,1603401093,94,7.09,125.16,25.0,1.0
147,yilan,75,TW,1603401093,88,24.76,121.75,21.0,1.5
148,muros,26,ES,1603401094,92,42.78,-9.06,13.89,1.34
149,irbit,58,RU,1603401094,93,57.67,63.07,-3.46,4.25
150,sibolga,100,ID,1603400822,76,1.74,98.78,24.65,1.2
151,ayr,75,GB,1603401094,81,55.46,-4.63,9.0,2.6
152,kastamonu,27,TR,1603401094,65,41.5,33.67,11.87,0.26
153,loralai,0,PK,1603400889,28,30.37,68.6,12.44,1.92
154,puro,100,PH,1603401094,84,12.48,123.38,27.4,5.05
155,fort nelson,0,NL,1603401094,92,52.65,6.39,11.11,2.24
156,chokurdakh,69,RU,1603400972,92,70.63,147.92,-16.74,4.28
157,sao joao da barra,2,IN,1603400967,54,20.51,76.21,21.83,2.34
158,lorengau,3,PG,1603401095,76,-2.02,147.27,27.68,3.84
159,lavrentiya,0,RU,1603400994,84,65.58,-171.0,2.46,3.33
160,hami,86,CN,1603400462,43,42.8,93.45,9.16,1.33
161,kahului,1,US,1603401095,51,20.89,-156.47,30.0,3.6
162,pekan,20,MY,1603401095,88,3.48,103.4,26.0,1.5
163,makakilo city,90,US,1603401095,88,21.35,-158.09,28.0,4.1
164,yar-sale,96,RU,1603400658,97,66.83,70.83,-8.56,3.96
165,east london,75,IS,1603400979,87,65.0,-15.0,3.0,5.1
166,saint-pierre,0,RE,1603401095,68,-21.34,55.48,22.0,1.5
167,yerbogachen,100,RU,1603401005,81,61.28,108.01,2.77,5.62
168,omis,0,HR,1603401096,77,43.44,16.69,16.0,5.1
169,norman wells,20,US,1603400991,48,35.22,-97.44,29.44,8.7
170,chimbarongo,0,CL,1603401096,28,-34.7,-71.05,27.0,2.1
171,ilhabela,20,BR,1603400829,82,-23.78,-45.36,22.01,5.87
172,vila franca do campo,93,PT,1603401096,93,42.03,-8.16,10.56,0.45
173,nanortalik,0,GL,1603400986,84,60.14,-45.24,-0.92,7.21
174,beringovskiy,29,RU,1603401096,85,63.05,179.32,3.71,6.46
175,havre-saint-pierre,75,CA,1603401022,60,50.23,-63.6,5.0,3.6
176,lumeje,88,AO,1603401096,67,-11.55,20.78,22.08,1.25
177,port elizabeth,12,CD,1603400964,61,-7.03,29.76,25.52,2.07
178,carutapera,48,BR,1603400480,92,-1.2,-46.02,24.83,2.32
179,severo-kurilsk,96,RU,1603400399,81,50.68,156.12,6.11,4.62
180,zomin,100,UZ,1603401097,55,39.96,68.4,8.27,2.05
181,oltu,13,TR,1603401097,56,40.55,42.0,10.74,0.38
182,polunochnoye,5,RU,1603401097,94,60.87,60.42,-7.54,2.03
183,boa vista,99,CM,1603401017,86,4.43,8.97,24.83,0.99
184,arraial do cabo,20,BR,1603400981,51,-22.84,-46.65,27.0,10.8
185,svetlyy,40,RU,1603401098,87,54.67,20.13,13.33,4.0
186,mandalgovi,0,MN,1603401098,80,45.76,106.27,-0.59,2.28
187,hermanus,22,ZA,1603400980,87,-34.42,19.23,17.22,2.24
188,laguna,1,US,1603400974,17,38.42,-121.42,25.56,7.7
189,pitlochry,78,GB,1603401098,91,56.71,-3.73,7.78,0.45
190,nguru,68,NG,1603401098,14,12.88,10.45,29.64,3.79
191,ajaccio,0,FR,1603401098,63,42.0,8.92,16.0,3.1
192,torbay,75,CA,1603400788,71,47.67,-52.73,13.33,12.3
193,margate,0,GB,1603401098,88,51.38,1.39,11.11,0.45
194,ancud,0,CL,1603400921,54,-41.87,-73.82,15.0,3.1
195,ribeira grande,90,ES,1603400996,93,42.75,-8.44,13.89,2.6
196,dingle,93,PH,1603401099,90,11.0,122.67,24.95,2.38
197,dromolaxia,0,CY,1603401099,43,34.88,33.59,23.0,3.1
198,fortuna,20,US,1603400804,36,40.6,-124.16,17.22,8.7
199,souillac,75,MU,1603401004,88,-20.52,57.52,22.0,3.6
200,juneau,1,US,1603400460,31,58.3,-134.42,2.78,8.2
201,geraldton,0,AU,1603401001,87,-28.77,114.6,10.0,3.1
202,rio cuarto,0,GR,1603401099,87,38.3,21.78,14.0,1.73
203,parkes,23,AU,1603401023,62,-33.13,148.18,19.65,6.13
204,manta,40,EC,1603401100,69,-0.95,-80.73,26.0,5.1
205,sorland,20,NO,1603400648,68,67.67,12.69,0.0,3.1
206,goderich,100,CA,1603401073,88,43.75,-81.72,12.78,6.57
207,cidreira,98,BR,1603400977,86,-30.18,-50.21,18.71,11.01
208,ilulissat,88,GL,1603401100,73,69.22,-51.1,-4.0,7.7
209,kodiak,90,US,1603400993,75,57.79,-152.41,8.0,11.8
210,cockburn harbour,100,AU,1603401100,56,-32.08,141.0,20.0,3.1
211,esperance,90,AU,1603400812,100,-33.87,121.9,12.0,4.22
212,alyangula,91,AU,1603401013,88,-13.85,136.42,27.0,3.1
213,provideniya,40,RU,1603400974,69,64.38,-173.3,3.0,7.0
214,fier,0,AL,1603401101,67,40.72,19.56,14.65,1.46
215,boende,100,CD,1603401101,95,-0.22,20.87,22.59,0.38
216,dongkan,0,CN,1603401101,51,34.0,119.83,9.88,3.09
217,ust-uda,0,RU,1603401101,96,54.17,103.03,-0.17,1.61
218,gat,0,IL,1603401101,69,31.61,34.76,23.0,2.1
219,granja,85,BR,1603401101,62,-3.12,-40.83,28.79,5.14
220,vila,93,PT,1603400651,93,42.03,-8.16,10.56,1.34
221,znamenskoye,100,RU,1603401102,98,57.13,73.83,-0.92,1.44
222,bairiki,20,KI,1603401102,74,1.33,172.98,28.0,4.1
223,luganville,90,VU,1603401102,94,-15.53,167.17,24.0,1.5
224,fairbanks,1,US,1603400770,78,64.84,-147.72,-3.33,1.5
225,georgetown,20,MY,1603400986,83,5.41,100.34,26.0,1.0
226,chengde,0,CN,1603401102,75,40.97,117.94,-0.23,1.44
227,mar del plata,20,ES,1603400966,82,43.4,-4.01,17.22,2.6
228,barth,40,DE,1603401102,93,54.36,12.72,15.0,3.6
229,opuwo,0,NA,1603401103,50,-18.06,13.84,18.71,3.39
230,gaziantep,0,TR,1603400957,67,37.06,37.38,14.0,2.06
231,maniitsoq,17,GL,1603400629,88,65.42,-52.9,-3.23,2.42
232,cap malheureux,0,FR,1603401103,100,49.27,-1.21,13.33,2.6
233,ulaangom,79,MN,1603401103,93,49.98,92.07,-2.19,0.7
234,zapolyarnyy,75,RU,1603401103,86,69.42,30.81,-1.0,9.3
235,beyneu,0,KZ,1603400642,90,45.32,55.2,0.53,1.45
236,forest grove,40,US,1603401103,47,37.36,-79.29,27.22,1.88
237,abu dhabi,0,IN,1603400997,30,24.6,72.7,17.63,1.28
238,sao jose da coroa grande,2,IN,1603401012,54,20.51,76.21,21.83,2.34
239,bushehr,0,IR,1603401104,53,28.97,50.84,25.0,1.59
240,newry,90,GB,1603401104,78,54.18,-6.34,8.33,1.34
241,niamtougou,48,TG,1603401104,56,9.77,1.11,24.89,1.04
242,byron bay,90,US,1603401104,100,44.03,-92.65,1.67,4.1
243,poya,58,NC,1603401104,68,-21.35,165.15,25.27,2.23
244,michigan city,90,US,1603401104,93,44.25,-85.5,7.0,2.6
245,nizwa,0,OM,1603400643,26,22.93,57.53,18.18,0.8
246,sakakah,0,SA,1603400513,15,29.97,40.21,21.0,2.6
247,puerto ayacucho,20,ES,1603400984,82,36.59,-6.23,18.0,3.6
248,alugan,82,PH,1603401105,83,12.22,125.48,26.23,1.09
249,coutances,0,FR,1603401105,87,49.05,-1.43,14.0,4.6
250,visnes,98,NO,1603401105,81,59.36,5.22,10.0,7.7
251,lianran,0,CN,1603401105,75,24.92,102.48,11.11,2.0
252,rafai,94,CF,1603401105,97,4.95,23.92,20.62,0.09
253,portree,100,GB,1603401105,83,57.41,-6.19,9.44,4.47
254,northam,49,GB,1603401105,90,51.03,-4.22,11.11,0.45
255,hobyo,62,SO,1603401105,86,5.35,48.53,26.68,9.15
256,bonavista,82,CA,1603400605,82,48.65,-53.11,13.33,8.49
257,vanavara,100,RU,1603400967,80,60.34,102.28,3.5,6.07
258,pevek,0,RU,1603401106,96,69.7,170.31,-1.5,8.01
259,asmara,3,ER,1603401106,75,15.33,38.93,15.59,0.77
260,maragogi,70,BR,1603401106,84,-9.01,-35.22,25.24,3.4
261,huarmey,6,PE,1603401106,67,-10.07,-78.15,20.99,4.79
262,guaratinga,75,BR,1603401078,74,-16.57,-39.57,26.0,3.6
263,isangel,100,VU,1603400612,76,-19.55,169.27,25.86,3.65
264,jati,0,PK,1603401106,35,24.35,68.27,26.56,3.63
265,darhan,0,MN,1603400615,88,49.49,105.92,-0.14,2.63
266,khatanga,31,RU,1603400976,91,71.97,102.5,-16.26,3.59
267,dukat,25,RU,1603401106,88,62.55,155.55,-9.83,2.55
268,srivardhan,91,IN,1603401107,85,18.03,73.02,25.75,2.07
269,unguia,87,CO,1603401107,83,8.04,-77.09,28.47,1.44
270,lingyuan,0,CN,1603401107,76,41.24,119.4,-1.08,1.65
271,nurota,100,UZ,1603401107,49,40.56,65.69,9.0,1.0
272,meulaboh,100,ID,1603400665,85,4.14,96.13,24.97,2.06
273,katsuura,75,JP,1603401107,88,35.13,140.3,17.22,5.1
274,pangody,99,RU,1603400675,97,65.85,74.49,-8.92,3.2
275,manjacaze,1,MZ,1603401107,91,-24.71,33.88,19.49,2.08
276,port lincoln,12,CD,1603400966,61,-7.03,29.76,25.52,2.07
277,talnakh,40,RU,1603401107,84,69.49,88.4,-14.0,6.0
278,muravlenko,100,RU,1603401108,97,63.79,74.52,-8.83,4.83
279,auki,100,SB,1603401108,73,-8.77,160.7,27.49,1.4
280,sao filipe,2,IN,1603401020,54,20.51,76.21,21.83,2.34
281,verkhnyaya inta,100,RU,1603401108,98,60.98,40.21,-0.09,5.11
282,north bend,87,FR,1603401108,100,50.33,3.67,11.67,1.5
283,curaca,67,BR,1603401108,22,-8.99,-39.91,33.9,3.59
284,thompson,90,CA,1603400791,54,55.74,-97.86,-1.0,5.7
285,havoysund,75,NO,1603401108,85,71.0,24.66,0.0,8.2
286,sulzbach-rosenberg,90,DE,1603400811,87,49.5,11.75,13.89,1.74
287,ridgecrest,20,US,1603401060,12,35.62,-117.67,30.56,2.6
288,brae,69,GB,1603401109,86,60.4,-1.35,3.0,2.1
289,losevo,93,RU,1603401109,67,50.68,40.05,10.91,3.9
290,severo-yeniseyskiy,96,RU,1603400604,95,60.37,93.04,-3.32,7.41
291,penzance,23,GB,1603401109,100,50.12,-5.54,11.11,2.1
292,rundu,19,NA,1603401010,20,-17.93,19.77,23.63,2.21
293,lichinga,0,MZ,1603401109,43,-13.31,35.24,22.0,4.6
294,harper,94,LR,1603401110,87,4.38,-7.72,25.5,2.63
295,bilma,0,NE,1603400971,15,18.69,12.92,28.23,3.97
296,tura,100,IN,1603400984,97,25.52,90.22,21.02,0.79
297,farafangana,3,MG,1603401110,87,-22.82,47.83,21.62,3.1
298,pucallpa,75,PE,1603401110,94,-8.38,-74.55,24.0,3.6
299,rio grande,0,GR,1603400993,87,38.3,21.78,14.0,1.73
300,maldonado,100,UY,1603401110,98,-34.67,-54.92,15.0,5.29
301,clyde river,67,US,1603401006,76,41.3,-82.98,22.78,2.6
302,saint-francois,0,FR,1603401110,63,46.42,3.91,18.0,5.1
303,tiksi,74,RU,1603400975,93,71.69,128.87,-13.18,3.26
304,kondopoga,100,RU,1603401110,93,62.21,34.26,3.0,3.0
305,bethel,1,US,1603400939,73,41.37,-73.41,22.0,4.1
306,kaili,25,ID,1603401111,78,-3.46,120.21,19.52,1.29
307,zhigansk,100,RU,1603400833,96,66.77,123.37,-7.1,9.26
308,ust-tsilma,0,RU,1603400675,96,65.44,52.15,-6.06,1.58
309,sisimiut,0,GL,1603400797,88,66.94,-53.67,-3.42,3.82
310,necochea,89,AR,1603400937,79,-38.55,-58.74,15.0,4.92
311,praia,20,CV,1603400690,78,14.92,-23.51,27.0,7.7
312,iksha,75,RU,1603401111,87,56.17,37.52,7.0,4.0
313,berlevag,0,NO,1603401015,74,70.86,29.09,2.0,6.2
314,kismayo,73,SO,1603401018,83,-0.36,42.55,26.58,6.89
315,tezu,100,IN,1603401112,86,27.92,96.17,21.25,1.41
316,faya,0,SA,1603401112,13,18.39,42.45,19.0,2.1
317,aztec,1,US,1603400940,11,36.82,-107.99,23.33,6.2
318,ternate,28,ID,1603400696,81,0.8,127.4,26.95,0.84
319,kolaras,21,IN,1603401112,34,25.23,77.6,22.69,2.11
320,mbandaka,100,CD,1603401112,91,0.05,18.26,22.55,0.72
321,ozernovskiy,100,RU,1603401112,61,51.5,156.52,6.71,3.02
322,aleksandrov gay,100,RU,1603401112,94,56.4,38.71,6.47,4.77
323,brainerd,90,US,1603401113,99,46.36,-94.2,0.0,4.6
324,urumqi,0,CN,1603401113,39,43.8,87.6,8.0,3.0
325,virden,0,US,1603401113,58,39.5,-89.77,27.78,3.58
326,bardiyah,7,LY,1603401113,68,31.76,25.09,19.96,1.79
327,martapura,92,ID,1603401113,91,-3.42,114.85,23.76,0.54
328,tahoua,0,NE,1603401113,12,14.89,5.27,31.4,4.6
329,barabash,99,RU,1603401113,56,43.2,131.48,5.0,5.0
330,kargil,0,IN,1603400690,79,34.57,76.1,1.2,2.55
331,yarada,75,IN,1603401114,94,17.65,83.27,26.0,1.0
332,vidim,85,RU,1603401114,96,56.41,103.11,0.12,2.61
333,cabedelo,75,BR,1603400420,94,-6.98,-34.83,24.0,6.7
334,birobidzhan,94,RU,1603401114,91,48.8,132.95,0.34,0.96
335,melilla,0,ES,1603401114,88,35.29,-2.94,19.0,1.5
336,sur,0,OM,1603400999,56,22.57,59.53,23.3,2.33
337,kirovskiy,98,RU,1603401114,85,45.09,133.51,1.81,3.42
338,allapalli,37,IN,1603401115,77,19.42,80.07,20.37,0.86
339,pionki,93,PL,1603401115,74,51.48,21.45,15.0,3.09
340,man,44,CI,1603401115,72,7.41,-7.55,23.55,0.94
341,bilibino,16,RU,1603400982,95,68.05,166.44,-9.13,0.77
342,flinders,8,AU,1603400635,92,-34.58,150.86,17.22,1.79
343,oriximina,55,BR,1603401115,37,-1.77,-55.87,34.52,2.56
344,killarney,97,IE,1603401115,78,52.05,-9.52,8.47,3.44
345,hvolsvollur,64,IS,1603401115,82,63.75,-20.22,5.0,8.49
346,ukmerge,40,LT,1603401116,76,55.25,24.75,13.33,4.1
347,karpathos,37,GR,1603400899,72,35.51,27.21,20.0,1.5
348,naze,75,JP,1603401116,94,28.37,129.48,22.0,11.8
349,tres arroyos,5,IT,1603401116,100,46.32,11.1,13.33,3.1
350,revda,40,RU,1603401116,73,56.8,59.93,-4.0,8.0
351,beloha,0,MG,1603400995,72,-25.17,45.05,22.02,5.48
352,ormara,0,PK,1603401116,47,25.21,64.64,26.05,1.27
353,guatire,40,VE,1603401116,55,10.48,-66.54,31.0,3.1
354,saint-joseph,0,RE,1603401116,68,-21.37,55.62,22.0,1.5
355,praia da vitoria,20,CV,1603401008,78,14.92,-23.51,27.0,7.7
356,baoning,0,CN,1603401117,87,25.34,110.03,12.0,2.0
357,forbes,55,AU,1603401117,61,-33.38,148.02,19.86,4.93
358,port-gentil,75,GA,1603400620,88,-0.72,8.78,26.0,5.1
359,priargunsk,0,RU,1603401117,83,50.37,119.1,-2.79,1.63
360,valdosta,75,US,1603401036,55,30.83,-83.28,30.0,4.6
361,shilka,0,RU,1603401117,93,51.85,116.03,-2.3,1.5
362,sawtell,2,AU,1603401117,82,-30.38,153.1,20.0,2.1
363,barra do garcas,64,BR,1603401117,37,-11.09,-43.14,30.57,1.74
364,newport,40,GB,1603401118,88,51.59,-3.0,11.11,1.32
365,mihaesti,0,RO,1603401118,63,45.03,24.25,9.99,0.65
366,seoul,1,KR,1603401086,65,37.57,126.98,8.0,1.5
367,andenes,75,NO,1603401118,91,69.31,16.12,0.0,4.1
368,olinda,75,BR,1603401118,78,-8.01,-34.86,27.0,4.6
369,kungurtug,2,RU,1603401118,83,50.6,97.52,-1.41,0.85
370,jumla,25,NP,1603400584,64,29.27,82.18,7.19,1.15
371,nampula,0,MZ,1603401119,78,-15.12,39.27,22.0,5.1
372,nyuksenitsa,92,RU,1603401119,94,60.41,44.24,-1.14,3.79
373,union,90,US,1603401119,88,40.63,-74.27,21.0,2.34
374,beyla,6,GN,1603401015,81,8.68,-8.63,21.24,0.61
375,mahanoro,43,MG,1603400636,82,-19.9,48.8,22.11,1.07
376,lumby,40,CA,1603401119,42,50.25,-118.97,7.0,1.5
377,gornopravdinsk,100,RU,1603401119,98,60.05,69.9,-2.88,1.81
378,amboasary,20,MG,1603400831,94,-25.03,46.38,23.0,9.3
379,turukhansk,100,RU,1603401120,96,65.82,87.98,-10.18,3.87
380,atikokan,100,CA,1603401120,85,48.76,-91.62,1.23,1.88
381,padang,100,ID,1603400376,64,-0.95,100.35,26.36,3.67
382,buraydah,0,SA,1603400965,27,26.33,43.98,23.0,3.6
383,beidao,3,CN,1603401120,55,34.57,105.89,8.43,1.57
384,san patricio,27,ML,1603400977,31,13.3,-4.9,31.28,3.09
385,guarare,20,PA,1603401120,79,7.82,-80.28,29.0,4.1
386,rahimatpur,82,IN,1603401120,82,17.6,74.2,23.13,1.5
387,sayyan,81,YE,1603401120,34,15.17,44.32,12.93,1.94
388,tarko-sale,100,RU,1603400690,96,64.92,77.78,-10.19,4.47
389,sjovegan,75,NO,1603401121,92,68.87,17.85,-2.78,4.1
390,chicama,24,PE,1603400998,77,-7.84,-79.15,19.0,7.2
391,villazon,56,BO,1603400638,42,-22.09,-65.59,16.47,8.47
392,north platte,87,FR,1603401108,100,50.33,3.67,11.67,1.5
393,kavieng,100,PG,1603400982,75,-2.57,150.8,28.13,6.0
394,camacha,20,PT,1603401121,68,33.08,-16.33,19.0,3.6
395,hervey bay,40,US,1603401121,45,33.5,-93.78,31.0,5.7
396,kashi,20,CN,1603401121,31,39.45,75.98,10.0,4.0
397,zhengjiatun,0,CN,1603400700,82,43.51,123.51,-1.23,3.85
398,sendafa,75,ET,1603401122,54,9.15,39.03,9.88,2.19
399,half moon bay,75,LR,1603401122,94,6.38,-10.7,25.0,2.07
400,sinnamary,99,GF,1603401026,77,5.38,-52.95,28.25,5.07
401,marzuq,99,YE,1603401122,23,14.4,46.47,19.79,1.53
402,ushumun,24,RU,1603401122,95,52.78,126.53,-7.29,3.43
403,atar,8,MR,1603401005,24,20.52,-13.05,32.0,3.8
404,safford,1,US,1603400979,14,32.83,-109.71,29.0,1.5
405,asau,0,RO,1603400979,70,46.43,26.4,11.11,2.53
406,moree,70,AU,1603401031,77,-29.47,149.85,19.0,6.7
407,ouesso,100,CG,1603400631,95,1.61,16.05,21.92,0.77
408,russell,75,US,1603400458,65,32.35,-85.2,27.0,3.6
409,wanning,100,CN,1603401123,72,18.8,110.4,22.43,6.56
410,erzin,0,TR,1603401123,79,36.96,36.2,22.78,0.45
411,valparaiso,20,CL,1603400667,76,-33.04,-71.63,15.56,4.1
412,porto walter,40,PT,1603401010,93,41.15,-8.61,14.0,2.1
413,santa maria,99,PH,1603401123,85,17.49,120.43,25.98,2.11
414,cavalcante,81,BR,1603400991,48,-13.8,-47.46,26.73,1.44
415,dori,0,BF,1603401123,12,14.04,-0.03,32.99,3.45
416,honningsvag,0,NO,1603400987,69,70.98,25.97,2.0,4.6
417,sun city west,79,YE,1603401124,29,16.72,44.81,14.87,1.38
418,kosa,100,RU,1603401124,89,59.94,55.0,-4.18,2.78
419,bairnsdale,85,AU,1603401000,94,-37.83,147.62,15.0,1.41
420,raudeberg,2,NO,1603401124,71,61.99,5.14,6.11,9.53
421,pandan niog,100,PH,1603401124,85,14.05,124.17,26.81,3.38
422,zyryanka,99,RU,1603401124,91,65.75,150.85,-12.27,1.04
423,diamantino,50,BR,1603401124,32,-14.41,-56.45,35.1,1.5
424,san clemente,27,ML,1603400977,31,13.3,-4.9,31.28,3.09
425,taltal,24,CL,1603401124,63,-25.4,-70.48,16.94,3.35
426,westport,15,US,1603401125,85,41.14,-73.36,21.11,1.03
427,chulman,46,RU,1603401121,92,56.85,124.91,-16.74,0.43
428,pilar,0,BR,1603401018,83,-9.6,-35.96,25.0,4.1
429,halvad,0,IN,1603401125,37,23.02,71.18,27.26,3.08
430,concarneau,90,FR,1603401125,93,47.88,-3.92,13.0,1.5
431,fort wellington,0,NL,1603401125,92,52.65,6.39,11.11,2.24
432,sanmenxia,0,CN,1603401125,45,34.77,111.18,9.3,2.76
433,clinton,90,US,1603400966,100,42.59,-82.92,14.44,2.6
434,uyovu,97,TZ,1603401125,81,-3.28,31.53,20.13,1.85
435,port macquarie,12,CD,1603400982,61,-7.03,29.76,25.52,2.07
436,agadez,0,NE,1603401126,16,19.75,10.25,27.89,5.39
437,egvekinot,40,RU,1603401006,95,66.32,-179.17,-2.12,1.76
438,ardakan,0,IR,1603401126,22,32.31,54.02,15.0,2.1
439,acapulco,40,MX,1603401028,74,16.86,-99.89,31.0,3.1
440,port augusta,12,CD,1603401017,61,-7.03,29.76,25.52,2.07
441,maceio,0,BR,1603400992,83,-9.67,-35.74,25.0,4.1
442,vertientes,40,CU,1603401126,70,21.26,-78.15,30.0,2.6
443,madera,0,US,1603400920,28,37.17,-119.83,29.44,0.45
444,abu samrah,0,IN,1603401127,30,24.6,72.7,17.63,1.28
445,gasa,0,PS,1603401127,69,31.5,34.47,23.0,2.1
446,rassvet,96,RU,1603401127,68,46.83,40.75,11.97,3.56
447,dalvik,75,IS,1603401127,69,65.97,-18.53,4.0,3.1
448,berbera,99,SO,1603401127,45,10.44,45.01,30.54,4.08
449,hofn,100,IS,1603401127,73,64.25,-15.21,6.58,11.33
450,kalilangan,99,PH,1603401127,76,7.82,124.73,20.2,0.84
451,soyo,98,AO,1603400648,83,-6.13,12.37,25.31,4.42
452,codrington,100,AU,1603401127,96,-38.27,141.97,12.05,1.57
453,san quintin,27,ML,1603401017,31,13.3,-4.9,31.28,3.09
454,balsas,22,BR,1603401128,22,-7.53,-46.04,34.24,2.05
455,wanxian,0,CN,1603401128,73,30.8,108.39,15.03,1.38
456,maarianhamina,90,AX,1603401128,100,60.1,19.93,10.0,3.6
457,fontanafredda,75,IT,1603401128,87,45.97,12.57,13.89,1.5
458,nuzvid,77,IN,1603401128,87,16.78,80.85,23.58,1.94
459,urusha,0,RU,1603401128,89,54.05,122.9,-6.75,1.66
460,leningradskiy,0,RU,1603400995,92,69.38,178.42,-1.53,2.84
461,pandan,100,PH,1603400606,85,14.05,124.17,26.81,3.38
462,san policarpo,27,ML,1603400845,31,13.3,-4.9,31.28,3.09
463,coihaique,0,CL,1603401129,31,-45.58,-72.07,18.0,3.1
464,matagami,90,CA,1603401129,100,49.75,-77.63,1.0,1.5
465,sisophon,100,KH,1603401129,62,13.59,102.97,20.59,3.73
466,west fargo,40,US,1603401129,51,31.8,-97.09,31.0,3.1
467,lapa,90,BR,1603401129,77,-25.77,-49.72,19.0,6.2
468,vila do maio,93,PT,1603401012,93,42.03,-8.16,10.56,0.45
469,hualmay,10,PE,1603401021,70,-11.1,-77.61,20.13,4.9
470,muncie,20,US,1603401095,51,40.19,-85.39,27.0,4.6
471,guanaja,75,HN,1603401130,74,16.4,-85.9,30.0,4.1
472,kijang,0,KR,1603400631,53,35.24,129.21,10.0,4.6
473,nelson bay,80,NZ,1603401130,62,-41.28,173.28,16.11,0.45
474,yarmouth,1,US,1603400970,64,41.71,-70.23,20.0,3.1
475,san rafael,27,ML,1603401014,31,13.3,-4.9,31.28,3.09
476,rawah,0,IQ,1603401130,35,34.48,41.91,22.52,4.35
477,kaduy,100,RU,1603401130,95,59.2,37.15,4.91,5.08
478,verkh-usugli,0,RU,1603401130,97,52.7,115.17,-4.8,0.64
479,arua,100,UG,1603401131,92,3.02,30.91,18.44,1.32
480,newton,0,US,1603401131,68,42.34,-71.21,18.33,3.6
481,puerto leguizamo,20,ES,1603400984,82,36.59,-6.23,18.0,3.6
482,okato,0,NZ,1603400934,70,-39.2,173.88,17.22,1.79
483,bonoua,20,CI,1603401131,88,5.27,-3.6,27.0,5.1
484,rafraf,20,TN,1603401131,64,37.19,10.18,22.0,1.5
485,camp verde,0,OM,1603401131,63,20.67,58.88,25.71,2.67
486,christchurch,19,NZ,1603401115,76,-43.53,172.63,15.56,2.6
487,bubaque,0,GW,1603401132,79,11.28,-15.83,28.59,4.27
488,sampit,15,ID,1603400534,96,-2.53,112.95,23.63,0.53
489,santa rosa,99,PH,1603401132,85,17.49,120.43,25.98,2.11
490,ust-maya,100,RU,1603401132,94,60.42,134.53,-8.15,3.22
491,solt,4,HU,1603401132,93,46.8,19.0,9.0,1.78
492,bay roberts,90,US,1603401132,93,43.73,-84.02,9.44,4.1
493,nam tha,0,CN,1603401132,71,29.42,90.91,3.36,1.63
494,gunnedah,0,AU,1603400663,87,-30.98,150.25,16.0,3.1
495,puerto cabezas,20,ES,1603400984,82,36.59,-6.23,18.0,3.6
496,pacific grove,0,US,1603400973,58,38.48,-90.74,28.89,0.45
497,tygda,0,RU,1603401133,93,53.12,126.33,-6.99,3.01
498,kupang,27,ID,1603400990,76,-10.17,123.58,25.88,1.79
499,benjamin aceval,20,US,1603401133,32,40.1,-111.73,13.89,8.2
500,guiyang,20,CN,1603401133,93,26.58,106.72,8.0,1.0
501,antalaha,0,MG,1603400988,82,-14.9,50.28,21.33,3.41
502,struer,98,DK,1603401133,92,56.49,8.58,11.11,0.89
503,poum,70,NC,1603401133,76,-20.23,164.02,24.98,6.1
504,stornoway,75,GB,1603400684,66,58.21,-6.39,9.0,6.2
505,itarema,82,BR,1603401134,79,-2.92,-39.92,26.86,7.22
506,dallas,75,US,1603401019,58,32.77,-96.78,28.89,6.2
507,lebedyn,97,UA,1603401134,59,50.59,34.48,10.85,4.63
508,angoram,94,PG,1603401134,93,-4.06,144.07,22.61,0.84
509,doha,0,QA,1603400673,73,25.29,51.53,25.0,1.5
510,qasigiannguit,75,GL,1603400692,73,68.82,-51.19,-4.0,7.7
511,tahta,0,EG,1603400391,28,26.77,31.5,28.0,5.7
512,hasaki,75,JP,1603400810,100,35.73,140.83,17.22,3.6
513,korsakov,40,RU,1603401134,93,46.63,142.78,9.0,5.37
514,caravelas,97,BR,1603401135,83,-17.71,-39.25,24.12,2.85
515,kaseda,100,JP,1603400836,73,31.42,130.32,18.02,9.85
516,grand river south east,1,US,1603400964,11,38.88,-109.5,26.67,7.2
517,pasighat,100,IN,1603401135,86,28.07,95.33,21.77,0.82
518,surt,0,LY,1603401135,59,31.21,16.59,20.48,2.42
519,villa vazquez,100,IT,1603400862,93,46.2,10.13,12.78,0.53
520,paramonga,22,PE,1603401135,73,-10.67,-77.83,19.7,4.45
521,mumford,13,GH,1603401026,89,5.26,-0.76,25.81,4.42
522,upata,40,VE,1603401135,62,8.01,-62.4,29.22,1.17
523,dicabisagan,100,PH,1603401136,78,17.08,122.42,26.48,1.63
524,tautira,75,PF,1603400649,78,-17.73,-149.15,26.0,3.1
525,saravan,0,AM,1603401136,58,39.72,45.65,12.0,4.1
526,gamboma,100,CG,1603401136,86,-1.88,15.86,23.49,1.21
527,cap-aux-meules,75,CA,1603401136,76,47.38,-61.86,9.0,8.2
528,vilyuysk,37,RU,1603401136,95,63.76,121.62,-9.05,4.12
529,sao joao dos patos,2,IN,1603400984,54,20.51,76.21,21.83,2.34
