,City,Cloudiness,Country,Date,Humidity,Lat,Lng,Max Temp,Wind Speed
0,vila franca do campo,100,PT,1603673837,95,42.03,-8.16,6.67,2.68
1,fort saint john,98,NL,1603673837,91,52.65,6.39,10.0,1.34
2,udachnyy,0,RU,1603673837,84,66.42,112.4,-18.0,1.0
3,villa constitucion,97,IT,1603673838,92,46.2,10.13,11.67,1.17
4,khatanga,95,RU,1603673838,95,71.97,102.5,-14.48,4.38
5,fortuna,1,US,1603673838,58,40.6,-124.16,14.44,4.1
6,yar-sale,53,RU,1603673677,96,66.83,70.83,-11.52,4.53
7,svatove,74,UA,1603673838,82,49.41,38.15,7.53,1.71
8,tahara,40,JP,1603673838,67,34.67,137.27,19.44,1.5
9,bluff,73,NZ,1603673838,57,-46.6,168.33,12.78,3.13
10,sao joao da barra,0,IN,1603673839,76,20.51,76.21,20.95,0.63
11,punta arenas,97,PH,1603673839,69,8.99,125.34,28.75,1.49
12,bogorodskoye,86,RU,1603673839,96,56.55,37.88,5.59,1.81
13,bengkulu,100,ID,1603673839,84,-3.8,102.27,24.58,2.19
14,nome,90,US,1603673719,80,64.5,-165.41,4.0,3.1
15,rikitea,100,PF,1603673623,82,-23.12,-134.97,23.18,11.49
16,ulverstone,0,AU,1603673839,40,-41.15,146.17,16.11,2.68
17,east london,90,IS,1603673827,93,65.0,-15.0,4.0,6.7
18,atocha,98,BO,1603673839,30,-20.93,-66.23,13.95,3.4
19,pangnirtung,35,CA,1603673839,85,66.15,-65.71,-11.01,1.99
20,xuzhou,91,CN,1603673840,60,34.18,117.16,16.94,2.28
21,cascais,100,PT,1603673840,78,38.7,-9.42,15.56,8.96
22,rio gallegos,20,GR,1603673840,93,38.3,21.78,11.0,2.15
23,ganzhou,98,CN,1603673840,66,28.82,115.43,17.84,1.04
24,lebu,10,CL,1603673840,77,-37.62,-73.65,8.83,1.81
25,ribeira grande,40,ES,1603673840,93,42.75,-8.44,6.11,1.5
26,ushuaia,20,AR,1603673840,66,-54.8,-68.3,9.0,2.1
27,busselton,0,AU,1603673840,44,-33.65,115.33,23.89,5.57
28,mitchelstown,20,IE,1603673841,87,52.27,-8.27,8.89,5.7
29,mantua,100,IT,1603673574,92,45.17,10.78,14.44,1.34
30,arman,100,RU,1603673841,74,59.7,150.17,3.07,5.38
31,albany,2,US,1603673794,68,42.6,-73.97,5.0,0.93
32,kahului,40,US,1603673687,46,20.89,-156.47,34.0,7.7
33,hilo,20,US,1603673787,55,19.73,-155.09,31.0,7.7
34,guerrero negro,63,MX,1603673841,77,17.67,-100.0,20.01,1.22
35,arraial do cabo,0,BR,1603673841,82,-22.84,-46.65,20.0,2.6
36,hobart,40,AU,1603673640,47,-42.88,147.33,15.56,6.7
37,kiunga,71,PG,1603673841,77,-6.12,141.29,29.43,0.84
38,san nicolas,0,ML,1603673842,17,13.3,-4.9,26.51,3.04
39,cape town,0,CL,1603673842,54,-36.41,-71.9,14.0,2.1
40,puerto ayora,75,ES,1603673842,88,36.59,-6.23,17.0,3.6
41,chokurdakh,0,RU,1603673842,92,70.63,147.92,-14.36,4.33
42,pimenta bueno,0,BR,1603673842,87,-20.48,-45.8,19.53,1.93
43,ruteng,71,ID,1603673842,76,-8.61,120.47,23.48,0.48
44,lethem,35,GY,1603673842,64,3.38,-59.8,27.64,2.44
45,nanortalik,100,GL,1603673842,89,60.14,-45.24,1.45,4.66
46,tasiilaq,100,GL,1603673842,97,65.61,-37.64,0.0,8.7
47,cap malheureux,75,FR,1603673843,93,49.27,-1.21,11.67,3.6
48,havre-saint-pierre,1,CA,1603673843,58,50.23,-63.6,-1.0,3.6
49,san cristobal,0,ML,1603673586,17,13.3,-4.9,26.51,3.04
50,komsomolskiy,0,UZ,1603673843,65,40.43,71.72,5.0,0.6
51,hithadhoo,19,MV,1603673843,65,-0.6,73.08,28.73,2.65
52,kavieng,100,PG,1603673843,77,-2.57,150.8,28.1,4.62
53,kapaa,40,US,1603673843,74,22.08,-159.32,28.0,4.1
54,barrow,90,US,1603673843,79,71.29,-156.79,-4.0,3.6
55,katsuura,75,JP,1603673843,55,35.13,140.3,20.56,1.5
56,arys,0,KZ,1603673843,56,42.43,68.8,6.0,3.0
57,vostok,43,RU,1603673844,81,46.49,135.88,3.73,1.2
58,isla mujeres,100,PH,1603673844,74,15.89,120.3,28.8,4.05
59,faanui,0,PF,1603673844,73,-16.48,-151.75,26.59,3.2
60,evensk,100,RU,1603673844,86,61.95,159.23,1.41,6.45
61,clyde river,100,US,1603673844,71,41.3,-82.98,9.44,2.66
62,andenes,75,NO,1603673844,93,69.31,16.12,3.0,8.7
63,codrington,4,AU,1603673844,63,-38.27,141.97,14.04,8.98
64,torrevieja,62,ES,1603673733,60,37.98,-0.68,18.89,0.45
65,alofi,90,NU,1603673844,78,-19.06,-169.92,26.0,6.7
66,atuona,0,PF,1603673676,73,-9.8,-139.03,26.15,8.86
67,vaini,90,TO,1603673845,94,-21.2,-175.2,23.0,6.2
68,saint-philippe,0,RE,1603673845,68,-21.36,55.77,22.0,2.1
69,salalah,0,OM,1603673845,64,17.02,54.09,24.0,1.0
70,iwanai,51,JP,1603673845,66,42.97,140.51,10.98,2.47
71,yellowknife,75,CA,1603673845,79,62.46,-114.35,-2.22,2.1
72,maloh,90,PH,1603673845,94,9.06,122.99,26.11,2.1
73,cabedelo,0,BR,1603673845,88,-6.98,-34.83,25.0,2.1
74,mikkeli,90,FI,1603673845,93,61.69,27.27,6.0,4.1
75,port elizabeth,100,CD,1603673846,59,-7.03,29.76,25.11,1.29
76,praia,0,CV,1603673645,74,14.92,-23.51,27.0,7.7
77,mar del plata,20,ES,1603673846,71,43.4,-4.01,13.89,3.1
78,luanda,75,AO,1603673846,83,-8.84,13.23,25.0,3.1
79,mataura,99,NZ,1603673846,57,-46.19,168.86,12.78,3.13
80,bredasdorp,100,ZA,1603673846,87,-34.53,20.04,16.0,5.7
81,poplar bluff,0,GB,1603673846,81,51.51,-0.02,10.0,3.1
82,beringovskiy,0,RU,1603673846,91,63.05,179.32,-0.43,0.86
83,luderitz,0,NA,1603673846,56,-26.65,15.16,17.95,9.88
84,george town,100,ZA,1603673846,100,-33.96,22.46,16.0,4.6
85,nizwa,0,OM,1603673847,35,22.93,57.53,16.53,1.13
86,charters towers,90,US,1603673847,87,38.57,-83.43,10.0,1.5
87,san felipe,0,ML,1603673847,17,13.3,-4.9,26.51,3.04
88,provideniya,90,RU,1603673847,74,64.38,-173.3,2.0,3.0
89,baruun-urt,66,MN,1603673847,88,46.68,113.28,0.98,8.71
90,havelock,90,US,1603673847,88,34.88,-76.9,21.0,4.1
91,abu dhabi,0,IN,1603673847,61,24.6,72.7,15.49,1.55
92,tsimlyansk,100,RU,1603673848,78,47.65,42.1,8.75,3.46
93,agirish,96,RU,1603673848,98,61.92,63.02,-4.35,2.09
94,georgetown,40,MY,1603673848,88,5.41,100.34,26.0,3.2
95,brazzaville,75,CG,1603673848,78,-4.27,15.28,27.0,2.01
96,severo-kurilsk,100,RU,1603673842,80,50.68,156.12,8.04,3.18
97,morondava,0,MG,1603673848,63,-20.28,44.28,23.72,2.18
98,grindavik,0,IS,1603673849,86,63.84,-22.43,5.0,4.1
99,nacala,12,MZ,1603673706,86,-14.54,40.67,22.99,1.71
100,amga,86,RU,1603673849,91,60.9,131.96,-8.61,1.23
101,port alfred,100,CD,1603673849,59,-7.03,29.76,25.11,1.29
102,coquimbo,0,CL,1603673849,87,-29.95,-71.34,12.0,2.1
103,erzurum,0,TR,1603673849,79,40.0,41.5,-2.0,0.56
104,qaanaaq,88,GL,1603673849,76,77.48,-69.36,-12.77,3.74
105,korla,5,CN,1603673849,68,41.76,86.15,6.67,0.45
106,gamba,100,GA,1603673850,89,-2.65,10.0,24.62,3.85
107,bayir,0,TR,1603673850,87,37.27,28.22,13.0,1.0
108,sinnamary,25,GF,1603673850,82,5.38,-52.95,26.84,4.28
109,touros,40,BR,1603673850,83,-5.2,-35.46,26.0,2.6
110,jamestown,90,US,1603673850,70,42.1,-79.24,7.22,4.6
111,port shepstone,100,CD,1603673849,59,-7.03,29.76,25.11,1.29
112,kloulklubed,75,PW,1603673850,70,7.04,134.26,30.0,2.1
113,liwale,74,TZ,1603673850,77,-9.77,37.93,21.8,2.92
114,butaritari,33,KI,1603673850,69,3.07,172.79,27.45,3.73
115,cherskiy,100,RU,1603673850,96,68.75,161.3,-8.52,0.6
116,hermanus,99,ZA,1603673836,88,-34.42,19.23,16.11,0.89
117,dikson,100,RU,1603673851,98,73.51,80.55,-6.59,4.99
118,upernavik,65,GL,1603673851,77,72.79,-56.15,-10.06,2.28
119,sur,0,OM,1603673851,64,22.57,59.53,22.07,2.32
120,forio,40,IT,1603673851,93,40.73,13.86,16.0,1.5
121,kaitangata,100,NZ,1603673851,62,-46.28,169.85,11.11,1.34
122,victoria,100,HK,1603673851,76,22.29,114.16,25.0,6.99
123,samarai,78,PG,1603673851,75,-10.62,150.67,28.35,3.37
124,taoudenni,47,ML,1603673851,14,22.68,-3.98,29.39,3.94
125,mys shmidta,86,RU,1603673852,97,62.06,48.62,-5.46,2.16
126,sidney,75,AU,1603673638,93,-33.87,151.21,14.44,13.4
127,brae,98,GB,1603673852,81,60.4,-1.35,10.0,7.2
128,berlevag,100,NO,1603673852,89,70.86,29.09,0.91,10.21
129,bambous virieux,75,MU,1603673852,78,-20.26,57.41,23.33,6.7
130,sola,75,VU,1603673852,79,-13.88,167.55,29.0,2.1
131,coahuayana,40,MX,1603673852,78,18.73,-103.68,26.0,5.1
132,port-gentil,100,GA,1603673853,85,-0.72,8.78,25.92,6.5
133,aklavik,90,CA,1603673853,92,68.22,-135.01,-6.0,4.1
134,hamilton,90,US,1603673642,62,39.18,-84.53,12.0,3.1
135,bolshevik,75,BY,1603673853,93,54.01,27.57,8.0,4.0
136,thompson,90,CA,1603673677,58,55.74,-97.86,-4.0,1.5
137,ketchikan,90,US,1603673853,100,55.34,-131.65,3.0,12.9
138,simbahan,100,PH,1603673853,77,6.3,120.58,27.38,3.86
139,requena,100,ES,1603673632,89,39.49,-1.1,11.67,0.89
140,gimli,43,CA,1603673853,98,50.63,-96.99,-3.33,4.48
141,flinders,75,AU,1603673853,62,-34.58,150.86,15.56,8.7
142,benjamin hill,75,US,1603673854,86,40.1,-111.73,0.0,7.7
143,klaksvik,2,FO,1603673854,81,62.23,-6.59,6.0,3.6
144,ancud,90,CL,1603673854,76,-41.87,-73.82,10.0,4.1
145,shimoda,75,JP,1603673854,64,34.67,138.95,21.0,4.6
146,san jose,0,ML,1603673586,17,13.3,-4.9,26.51,3.04
147,bathsheba,40,BB,1603673854,83,13.22,-59.52,27.0,6.2
148,tuktoyaktuk,90,CA,1603673673,92,69.45,-133.04,-8.0,7.7
149,beloha,91,MG,1603673854,79,-25.17,45.05,19.54,2.08
150,kaman,0,IN,1603673854,24,27.65,77.27,20.84,1.0
151,iqaluit,90,CA,1603673855,78,63.75,-68.51,-9.0,1.5
152,mulbagal,56,IN,1603673855,90,13.17,78.4,19.46,1.08
153,margate,98,GB,1603673855,66,51.38,1.39,10.56,0.89
154,marietta,75,US,1603673855,88,33.95,-84.55,20.0,1.94
155,fagernes,1,NO,1603673855,95,60.99,9.23,0.56,0.45
156,nikki,100,BJ,1603673855,44,9.94,3.21,23.3,0.86
157,fairbanks,1,US,1603673731,86,64.84,-147.72,0.56,1.72
158,kalmunai,63,LK,1603673855,79,7.42,81.82,26.13,2.08
159,erenhot,0,CN,1603673856,58,43.65,111.98,4.7,9.01
160,sanmenxia,49,CN,1603673856,59,34.77,111.18,18.32,2.87
161,puerto rondon,75,ES,1603673842,88,36.59,-6.23,17.0,3.6
162,uyemskiy,90,RU,1603673856,92,64.47,40.85,-3.0,1.0
163,forestville,90,US,1603673753,100,38.85,-76.88,9.44,3.6
164,pingliang,64,CN,1603673856,45,35.54,106.69,9.93,4.6
165,suoyarvi,99,RU,1603673856,96,62.08,32.35,0.14,2.76
166,ponta do sol,100,PT,1603673856,80,38.73,-28.27,16.41,2.94
167,iquitos,20,PE,1603673857,83,-3.75,-73.25,27.0,1.0
168,kenora,90,CA,1603673857,85,49.82,-94.43,-6.0,1.5
169,urumqi,0,CN,1603673857,64,43.8,87.6,4.0,3.0
170,tombouctou,0,ML,1603673857,13,20.0,-3.0,29.91,3.84
171,grand river south east,100,US,1603673857,93,38.88,-109.5,1.11,9.94
172,barbastro,40,ES,1603673857,93,42.04,0.13,12.0,4.6
173,yulara,0,AU,1603673857,24,-25.24,130.99,20.0,8.2
174,kaeo,0,NZ,1603673857,65,-35.1,173.78,22.78,2.24
175,chapais,90,CA,1603673857,79,49.78,-74.85,-3.0,1.5
176,vanimo,100,PG,1603673858,88,-2.67,141.3,26.05,3.33
177,kiama,75,AU,1603673858,62,-34.68,150.87,15.56,8.7
178,skjervoy,100,NO,1603673858,74,70.03,20.97,3.77,13.23
179,mirnyy,20,RU,1603673805,61,62.54,113.96,-9.0,3.0
180,stokmarknes,100,NO,1603673858,98,68.56,14.91,0.0,9.39
181,ozinki,0,RU,1603673858,76,51.18,49.68,3.81,7.89
182,goderich,100,CA,1603673858,74,43.75,-81.72,5.56,7.38
183,buraydah,0,SA,1603673859,33,26.33,43.98,15.0,2.86
184,torbay,75,CA,1603673859,72,47.67,-52.73,4.44,11.8
185,namibe,16,AO,1603673859,82,-15.2,12.15,19.86,3.36
186,paranaiba,20,BR,1603673859,75,-19.68,-51.19,25.37,1.98
187,nishihara,40,JP,1603673859,64,26.18,127.76,25.0,3.6
188,hammerfest,75,NO,1603673859,80,70.66,23.68,1.0,19.5
189,nioro,0,GM,1603673859,81,13.35,-15.75,25.75,2.37
190,sopotnica,0,MK,1603673860,82,41.29,21.16,7.84,1.66
191,bayamo,90,CU,1603673860,100,20.38,-76.64,25.0,3.1
192,carnarvon,40,AU,1603673860,83,-24.87,113.63,22.0,8.2
193,wilmington,90,US,1603673860,88,34.23,-77.94,20.0,5.1
194,katangli,100,RU,1603673860,93,51.71,143.23,4.03,11.38
195,tarko-sale,5,RU,1603673860,95,64.92,77.78,-12.95,5.56
196,souillac,75,MU,1603673860,78,-20.52,57.52,23.0,6.7
197,sobolevo,0,RU,1603673860,93,54.43,31.9,5.24,2.39
198,lompoc,75,US,1603673588,72,34.64,-120.46,18.0,4.6
199,sovetskaya gavan,12,RU,1603673860,52,44.78,41.17,12.37,3.32
200,nizhniy baskunchak,97,RU,1603673861,93,45.39,39.24,13.89,2.0
201,biak,39,ID,1603673861,64,-0.91,122.88,28.89,1.65
202,kyabe,7,TD,1603673861,56,9.45,18.94,23.76,1.34
203,bilma,0,NE,1603673861,24,18.69,12.92,21.22,4.5
204,nador,0,MA,1603673861,77,35.17,-2.93,18.0,3.1
205,belmonte,75,BR,1603673861,88,-15.86,-38.88,25.0,4.6
206,tukrah,100,LY,1603673862,75,32.53,20.58,21.16,2.42
207,khovu-aksy,86,RU,1603673862,80,51.13,93.6,-7.07,1.54
208,rawson,27,AR,1603673616,34,-43.3,-65.1,15.28,3.3
209,mahibadhoo,100,MV,1603673862,77,3.78,72.97,27.84,4.69
210,plainview,90,US,1603673862,71,40.78,-73.47,12.22,2.1
211,yarmouth,75,US,1603673862,75,41.71,-70.23,9.44,2.6
212,vao,0,NC,1603673862,81,-22.67,167.48,22.76,5.54
213,sokoto,0,NG,1603673863,24,13.06,5.24,26.46,3.35
214,bozuyuk,0,TR,1603673863,93,39.91,30.04,13.0,2.78
215,melnikovo,100,RU,1603673863,90,56.56,84.08,-0.56,2.12
216,goma,100,CD,1603673863,84,-1.68,29.22,16.98,0.19
217,banda aceh,0,IN,1603673863,43,25.48,80.33,22.79,1.78
218,jian,89,CN,1603673863,65,27.12,114.98,17.59,2.11
219,norman wells,90,US,1603673680,81,35.22,-97.44,8.0,4.6
220,surok,20,RU,1603673864,86,56.45,48.12,1.0,3.0
221,dongying,0,CN,1603673778,29,37.46,118.49,17.8,1.18
222,nanfeng,64,CN,1603673864,52,23.74,111.8,24.84,1.48
223,mujiayingzi,71,CN,1603673864,41,42.12,118.78,12.46,2.73
224,chara,100,RU,1603673864,90,56.91,118.26,0.45,0.55
225,sambava,0,MG,1603673864,84,-14.27,50.17,21.01,4.23
226,sterling,90,US,1603673864,93,39.01,-77.43,8.33,4.1
227,avarua,69,CK,1603673837,69,-21.21,-159.78,25.0,7.7
228,new norfolk,6,LR,1603673865,96,6.65,-10.59,23.13,0.66
229,puerto palomas,75,ES,1603673842,88,36.59,-6.23,17.0,3.6
230,ilulissat,100,GL,1603673865,52,69.22,-51.1,-9.0,0.5
231,bandar,100,ID,1603673865,86,2.05,99.75,24.97,0.69
232,kapiri mposhi,0,IN,1603673865,23,28.29,76.34,21.26,1.2
233,balikpapan,20,ID,1603673853,74,-1.27,116.83,30.0,3.6
234,zhigansk,65,RU,1603673865,89,66.77,123.37,-18.61,2.36
235,bethel,90,US,1603673865,57,41.37,-73.41,9.0,3.6
236,nelidovo,10,RU,1603673866,95,56.22,32.78,4.48,1.24
237,hasaki,75,JP,1603673866,59,35.73,140.83,17.22,2.6
238,sunland park,99,US,1603673866,80,38.89,-101.82,-6.11,4.92
239,barraute,90,CA,1603673866,94,48.43,-77.63,0.0,2.6
240,athabasca,0,CA,1603673866,89,54.72,-113.29,-5.66,3.14
241,muscat,0,OM,1603673855,64,23.61,58.59,21.0,2.1
242,esperance,0,AU,1603673866,48,-33.87,121.9,18.0,10.3
243,biltine,87,TD,1603673866,20,14.53,20.92,24.24,3.09
244,mount gambier,93,GB,1603673866,92,53.66,-1.85,6.67,2.24
245,burnie,0,AU,1603673866,40,-41.07,145.92,16.11,3.13
246,lavrentiya,88,RU,1603673867,88,65.58,-171.0,0.91,3.36
247,laguna,1,US,1603673802,14,38.42,-121.42,21.0,9.3
248,fegyvernek,75,HU,1603673867,100,47.27,20.53,12.78,1.0
249,makakilo city,1,US,1603673619,66,21.35,-158.09,30.0,4.6
250,xunchang,99,CN,1603673867,79,28.45,104.72,17.43,0.2
251,novita,100,CO,1603673868,92,4.96,-76.61,23.83,0.7
252,manokwari,100,ID,1603673868,68,-0.87,134.08,28.71,0.6
253,krapivinskiy,90,RU,1603673868,95,55.0,86.81,0.0,3.0
254,filingue,42,NE,1603673868,14,14.35,3.32,28.4,4.09
255,cayenne,40,GF,1603673868,94,4.93,-52.33,26.0,4.32
256,sao filipe,0,IN,1603673868,76,20.51,76.21,20.95,0.63
257,setermoen,100,NO,1603673868,64,68.86,18.35,4.0,11.8
258,newport,90,GB,1603673868,97,51.59,-3.0,7.78,6.86
259,kulykivka,100,UA,1603673868,94,51.37,31.65,7.2,2.28
260,alekseyevsk,100,RU,1603673868,96,57.84,108.35,-3.0,3.1
261,emet,0,TR,1603673869,42,39.34,29.26,14.86,2.11
262,longyearbyen,75,SJ,1603673869,79,78.22,15.64,-2.0,2.1
263,saint-joseph,0,RE,1603673869,68,-21.37,55.62,21.0,2.1
264,aswan,0,EG,1603673869,41,24.09,32.91,21.41,4.68
265,malakal,4,SS,1603673869,80,9.53,31.66,24.35,1.41
266,caceres,24,ES,1603673869,91,39.52,-6.37,9.44,1.34
267,tacoronte,0,ES,1603673869,87,28.48,-16.41,18.33,2.6
268,port macquarie,100,CD,1603673846,59,-7.03,29.76,25.11,1.29
269,dingle,100,PH,1603673869,88,11.0,122.67,25.49,7.49
270,adrar,57,MR,1603673870,13,20.5,-10.07,30.32,3.72
271,saldanha,0,ZA,1603673870,87,-33.01,17.94,13.0,3.1
272,mirganj,0,IN,1603673870,46,28.55,79.2,17.58,0.44
273,iskateley,0,RU,1603673869,96,67.68,53.15,-9.75,3.8
274,porangatu,11,BR,1603673870,64,-13.44,-49.15,25.14,0.9
275,chokwe,0,MZ,1603673870,77,-24.53,32.98,21.3,3.82
276,san antonio,0,ML,1603673586,17,13.3,-4.9,26.51,3.04
277,pandan,100,PH,1603673871,81,14.05,124.17,27.72,8.02
278,reitz,22,ZA,1603673871,57,-27.8,28.43,16.62,3.22
279,talnakh,75,RU,1603673677,92,69.49,88.4,-12.0,6.0
280,telimele,3,GN,1603673871,97,10.92,-13.33,21.11,0.24
281,puerto madryn,75,ES,1603673842,88,36.59,-6.23,17.0,3.6
282,carballo,75,ES,1603673871,93,43.21,-8.69,9.0,3.6
283,kodino,98,RU,1603673871,98,63.72,39.64,-2.44,1.79
284,anadyr,75,RU,1603673871,92,64.75,177.48,-5.0,3.0
285,atasu,100,KZ,1603673871,57,48.68,71.64,6.65,6.84
286,sioux lookout,90,US,1603673872,85,42.73,-96.23,-3.33,4.6
287,ler,68,SS,1603673872,77,8.3,30.14,24.43,1.68
288,tymovskoye,100,RU,1603673872,90,50.85,142.66,2.38,6.09
289,khandyga,0,RU,1603673872,90,62.67,135.6,-11.25,0.6
290,kifri,0,IQ,1603673872,23,34.7,44.97,19.21,3.67
291,bukoba,75,TZ,1603673872,83,-1.33,31.81,21.0,1.71
292,egvekinot,0,RU,1603673872,93,66.32,-179.17,-4.88,1.57
293,concordia,72,AR,1603673847,95,-31.39,-58.02,21.11,3.13
294,castro,2,BR,1603673873,97,-24.79,-50.01,16.2,2.75
295,hambantota,20,LK,1603673873,100,6.12,81.12,23.0,0.5
296,tarakan,100,ID,1603673705,85,3.3,117.63,25.9,4.07
297,yarada,75,IN,1603673873,94,17.65,83.27,26.0,1.0
298,chuy,100,UY,1603673873,89,-33.7,-53.46,19.23,5.2
299,mahebourg,75,MU,1603673873,78,-20.41,57.7,23.0,6.7
300,san patricio,0,ML,1603673586,17,13.3,-4.9,26.51,3.04
301,neftcala,100,AZ,1603673873,85,39.37,49.25,18.89,2.61
302,makokou,100,GA,1603673873,97,0.57,12.86,21.36,0.99
303,isangel,75,VU,1603673874,74,-19.55,169.27,27.0,2.6
304,axim,50,GH,1603673874,91,4.87,-2.24,25.26,3.57
305,srednekolymsk,0,RU,1603673874,91,67.45,153.68,-8.83,0.63
306,makamba,98,BI,1603673874,83,-4.13,29.8,17.83,1.16
307,buin,0,CL,1603673874,59,-33.73,-70.75,17.22,5.7
308,faya,0,SA,1603673874,22,18.39,42.45,15.0,0.93
309,mount isa,93,GB,1603673874,92,53.66,-1.85,6.67,2.24
310,vraca,40,BA,1603673874,100,43.84,18.4,5.0,0.5
311,constitucion,0,CL,1603673870,73,-35.33,-72.42,9.92,5.49
312,guanare,18,VE,1603673875,93,9.04,-69.74,23.79,1.11
313,champerico,75,GT,1603673875,100,14.3,-91.92,24.0,2.65
314,myanaung,100,MM,1603673875,91,18.28,95.32,24.83,0.86
315,kabinda,100,CD,1603673875,98,-6.13,24.48,19.91,2.07
316,zhezkazgan,100,KZ,1603673875,60,47.8,67.71,8.0,7.18
317,moose factory,1,US,1603673875,52,43.66,-110.72,-6.0,5.1
318,caravelas,100,BR,1603673875,97,-17.71,-39.25,22.26,4.22
319,karratha,67,AU,1603673875,43,-20.74,116.85,26.77,5.28
320,atbasar,100,KZ,1603673876,77,51.8,68.33,8.12,8.29
321,cukai,40,MY,1603673876,94,4.25,103.42,24.0,1.0
322,tuatapere,98,NZ,1603673876,57,-46.13,167.68,12.78,3.13
323,airai,80,TL,1603673852,61,-8.93,125.41,24.34,0.5
324,karatau,100,KZ,1603673876,65,43.17,70.47,5.17,1.71
325,eyl,72,SO,1603673876,72,7.98,49.82,24.43,3.19
326,chulucanas,100,PE,1603673876,57,-5.09,-80.16,22.94,3.44
327,nikolskoye,90,RU,1603673876,93,59.7,30.79,6.0,3.0
328,smithfield,90,US,1603673589,81,41.92,-71.55,8.33,3.6
329,khani,0,GE,1603673877,76,41.96,42.96,10.0,3.1
330,bartica,20,GY,1603673877,88,6.4,-58.62,26.0,2.1
331,voyvozh,26,RU,1603673877,98,62.89,54.96,-7.35,1.29
332,rexburg,1,US,1603673877,28,43.83,-111.79,-2.0,7.2
333,jumla,0,NP,1603673877,55,29.27,82.18,5.67,3.14
334,pangai,75,TO,1603673877,88,-19.8,-174.35,25.0,9.3
335,bagnacavallo,77,IT,1603673877,70,44.41,11.98,15.56,1.34
336,pevek,100,RU,1603673835,98,69.7,170.31,-3.64,2.86
337,kirakira,100,SB,1603673878,75,-10.45,161.92,29.29,3.62
338,omboue,100,GA,1603673878,90,-1.57,9.26,24.8,3.49
339,kodiak,90,US,1603673851,87,57.79,-152.41,9.0,2.6
340,leningradskiy,96,RU,1603673878,94,69.38,178.42,-3.73,2.78
341,maceio,40,BR,1603673821,94,-9.67,-35.74,24.0,2.6
342,bur gabo,91,DK,1603673878,95,56.37,8.43,7.78,5.22
343,hokitika,100,NZ,1603673879,97,-42.72,170.97,15.21,4.56
344,reo,0,BF,1603673879,29,12.32,-2.47,25.79,1.59
345,daru,100,PG,1603673879,70,-9.08,143.21,29.1,3.6
346,valdivia,0,CL,1603673879,81,-39.81,-73.25,9.0,1.0
347,kalach-na-donu,40,RU,1603673879,87,48.69,43.53,6.0,6.0
348,pont-rouge,1,CA,1603673880,79,46.76,-71.7,1.67,0.97
349,bukachacha,100,RU,1603673880,95,52.98,116.92,0.08,0.63
350,port lincoln,100,CD,1603673880,59,-7.03,29.76,25.11,1.29
351,narsaq,100,GL,1603673880,48,60.92,-46.05,5.0,6.7
352,geraldton,0,AU,1603673880,60,-28.77,114.6,23.0,6.7
353,kjollefjord,100,NO,1603673880,94,70.95,27.35,0.14,10.84
354,san lazaro,0,ML,1603673842,17,13.3,-4.9,26.51,3.04
355,muisne,100,EC,1603673880,82,0.6,-80.03,23.9,2.64
356,raga,79,SS,1603673880,72,8.46,25.68,21.43,1.18
357,miles city,90,US,1603673880,77,35.19,-120.7,17.22,6.2
358,lata,26,PT,1603673881,89,40.16,-8.33,12.78,1.77
359,ostrovnoy,100,RU,1603673881,95,68.05,39.51,-1.11,3.27
360,kimbe,22,PG,1603673881,56,-5.55,150.14,32.29,2.05
361,nago,1,JP,1603673881,60,26.59,127.98,24.0,5.1
362,khasan,0,RU,1603673881,53,42.43,130.64,10.4,3.28
363,longford,100,IE,1603673881,99,53.73,-7.8,8.89,7.15
364,sitka,90,US,1603673679,86,57.05,-135.33,5.0,6.2
365,lamar,90,US,1603673882,93,33.67,-95.58,12.22,3.6
366,udomlya,76,RU,1603673882,96,57.88,34.99,5.53,1.1
367,bundaberg,75,AU,1603673882,54,-24.85,152.35,29.44,5.7
368,college,90,US,1603673585,74,64.86,-147.8,0.56,1.5
369,morant bay,40,JM,1603673882,94,17.9,-76.43,25.0,14.4
370,sangar,100,RU,1603673882,90,63.92,127.47,-8.5,1.83
371,yauya,100,PE,1603673882,65,-8.98,-77.3,13.65,0.86
372,chebsara,31,RU,1603673882,98,59.2,38.84,-0.72,2.14
373,pauini,97,BR,1603673883,96,-7.71,-66.98,23.68,0.83
374,mareeba,41,AU,1603673883,69,-17.0,145.43,28.0,4.1
375,nyaunglebin,100,MM,1603673883,96,17.95,96.73,24.23,1.77
376,hovd,23,MN,1603673883,72,48.01,91.64,-2.77,0.8
377,tiksi,100,RU,1603673678,90,71.69,128.87,-14.81,13.87
378,bourail,0,NC,1603673883,43,-21.57,165.48,29.07,1.74
379,inhambane,8,MZ,1603673883,90,-23.86,35.38,22.08,1.18
380,iralaya,94,HN,1603673883,87,15.0,-83.23,25.7,1.48
381,chanika,67,TZ,1603673883,96,-5.42,38.02,18.91,1.32
382,challapata,0,BO,1603673884,37,-18.9,-66.77,13.53,1.04
383,ranong,75,TH,1603673884,94,9.97,98.63,25.0,1.0
384,port augusta,100,CD,1603673884,59,-7.03,29.76,25.11,1.29
385,ahome,5,MX,1603673884,55,25.92,-109.18,30.0,5.7
386,itarema,0,BR,1603673884,80,-2.92,-39.92,26.55,6.93
387,myitkyina,20,MM,1603673884,86,25.38,97.4,22.55,0.76
388,sulangan,100,PH,1603673884,80,11.14,123.72,27.33,7.91
389,bonnyville,75,CA,1603673884,45,54.27,-110.73,-4.0,4.1
390,tutoia,86,BR,1603673885,81,-2.76,-42.27,27.26,6.17
391,ust-omchug,100,RU,1603673885,93,61.15,149.63,-4.36,3.58
392,lorengau,100,PG,1603673885,73,-2.02,147.27,29.39,2.55
393,dong hoi,99,CM,1603673885,95,4.89,12.01,20.15,0.64
394,cabo san lucas,20,BR,1603673885,74,-8.28,-35.03,27.0,2.1
395,itoman,75,JP,1603673885,57,26.12,127.67,25.0,6.2
396,ouesso,100,CG,1603673885,97,1.61,16.05,21.49,0.95
397,cockburn town,0,AU,1603673885,58,-32.08,141.0,13.0,6.2
398,paamiut,100,GL,1603673886,88,61.99,-49.67,2.06,4.14
399,gambela,11,ET,1603673886,84,8.25,34.58,21.38,1.96
400,inongo,95,CD,1603673886,86,-1.95,18.27,22.67,2.37
401,fukue,40,JP,1603673886,72,32.69,128.84,18.0,0.5
402,caborca,3,MX,1603673886,55,30.58,-111.1,22.78,6.36
403,pemangkat,71,ID,1603673615,78,1.17,108.97,27.61,2.57
404,kushmurun,100,KZ,1603673886,82,52.45,64.63,10.09,9.49
405,pontes e lacerda,0,BR,1603673887,58,-4.83,-43.37,31.0,1.0
406,katherine,40,AU,1603673887,52,-14.47,132.27,31.0,4.6
407,luwuk,23,ID,1603673887,59,-0.95,122.79,30.04,1.86
408,vallenar,0,CL,1603673887,38,-28.57,-70.76,15.48,1.75
409,chunoyar,100,RU,1603673887,87,57.45,97.32,-4.17,2.61
410,san quintin,0,ML,1603673847,17,13.3,-4.9,26.51,3.04
411,san vicente,0,ML,1603673842,17,13.3,-4.9,26.51,3.04
412,gat,0,IL,1603673702,79,31.61,34.76,22.78,0.54
413,kihei,40,US,1603673888,46,20.79,-156.47,34.0,7.7
414,fairview,90,US,1603673773,71,40.81,-74.0,12.0,3.15
415,sukhumi,0,GE,1603673888,27,43.0,41.02,18.26,2.28
416,port hedland,100,CD,1603673846,59,-7.03,29.76,25.11,1.29
417,emerald,18,AU,1603673675,47,-23.53,148.17,26.67,3.6
418,lagoa,100,PT,1603673837,71,39.05,-27.98,18.06,3.49
419,sao miguel do araguaia,0,IN,1603673839,76,20.51,76.21,20.95,0.63
420,masakin,20,TN,1603673888,82,35.73,10.58,18.89,3.59
421,beaverlodge,75,CA,1603673888,50,55.22,-119.44,-1.0,5.1
422,husavik,90,IS,1603673852,80,66.04,-17.34,5.0,3.1
423,saint-denis,0,FR,1603673888,93,48.92,2.33,9.0,4.1
424,kushiro,20,JP,1603673889,62,42.98,144.37,12.0,1.5
425,nelson bay,100,NZ,1603673889,74,-41.28,173.28,18.33,1.79
426,tiznit,0,MA,1603673889,64,29.58,-9.5,15.72,0.91
427,pringsewu,100,ID,1603673889,75,-5.36,104.97,25.95,2.46
428,mehamn,100,NO,1603673889,92,71.04,27.85,0.39,9.5
429,cidreira,100,BR,1603673889,87,-30.18,-50.21,20.9,11.42
430,jatai,57,BR,1603673889,81,-17.88,-51.71,22.96,1.37
431,shakawe,0,BW,1603673890,28,-18.37,21.85,21.94,2.47
432,palu,100,ID,1603673696,70,-0.89,119.87,29.07,0.34
433,tilichiki,100,RU,1603673890,92,60.47,166.1,0.86,2.05
434,baltay,0,RU,1603673890,80,52.47,46.63,2.92,4.97
435,camacha,40,PT,1603673890,77,33.08,-16.33,20.0,4.6
436,chimbote,99,PE,1603673658,88,-9.09,-78.58,16.81,3.85
437,azul,100,AR,1603673890,100,-36.78,-59.86,14.44,2.68
438,kruisfontein,100,ZA,1603673890,95,-34.0,24.73,16.67,2.68
439,darhan,95,MN,1603673890,84,49.49,105.92,-3.54,1.23
440,deputatskiy,4,RU,1603673890,90,69.3,139.9,-15.49,2.62
441,dubai,0,AE,1603673839,50,25.26,55.3,25.0,1.5
442,asyut,0,EG,1603673891,63,27.18,31.18,19.0,2.1
443,byron bay,90,US,1603673891,92,44.03,-92.65,-2.78,2.1
444,palora,33,EC,1603673891,92,-1.7,-77.93,20.26,1.26
445,kribi,98,CM,1603673891,89,2.95,9.92,25.12,1.44
446,wajir,100,KE,1603673891,69,1.75,40.06,25.39,6.62
447,nakamura,0,JP,1603673891,45,32.98,132.93,19.65,0.4
448,yerbogachen,100,RU,1603673892,95,61.28,108.01,-4.92,2.27
449,choya,100,RU,1603673892,79,52.01,86.55,1.76,1.67
450,kodinsk,27,RU,1603673892,95,58.69,99.18,-5.83,1.38
451,dudinka,75,RU,1603673892,92,69.41,86.18,-12.0,6.0
452,pisco,0,PE,1603673885,77,-13.7,-76.22,18.0,8.2
453,nandurbar,7,IN,1603673892,50,21.37,74.25,23.41,1.03
454,novaya zaimka,75,RU,1603673893,93,55.92,38.33,8.0,2.0
455,filadelfia,90,US,1603673833,76,39.95,-75.16,9.44,5.1
456,villamontes,100,BO,1603673893,45,-21.25,-63.5,31.32,2.42
457,severskaya,19,RU,1603673893,83,44.85,38.68,13.89,1.96
458,lafiagi,100,NG,1603673893,60,8.87,5.42,25.52,0.43
459,ponta delgada,100,PT,1603673893,80,38.73,-28.27,16.41,2.94
460,alta floresta,90,NO,1603673893,80,69.97,23.27,1.11,8.2
461,callaway,1,US,1603673893,78,30.15,-85.57,24.0,2.6
462,lasa,90,IT,1603673893,93,46.62,10.7,11.67,3.1
463,olovyannaya,100,RU,1603673894,90,50.95,115.57,0.22,8.31
464,palana,99,RU,1603673894,75,59.12,159.97,3.65,4.52
465,san luis,0,ML,1603673894,17,13.3,-4.9,26.51,3.04
466,saint-pierre,0,RE,1603673894,68,-21.34,55.48,21.0,2.1
467,birao,0,CF,1603673894,43,10.28,22.79,23.35,0.93
468,garowe,6,SO,1603673894,55,8.41,48.48,23.38,2.05
469,howard springs,100,US,1603673895,96,39.25,-76.93,8.33,3.03
470,okha,100,RU,1603673895,90,53.57,142.95,4.63,10.82
471,odda,100,NO,1603673895,74,60.07,6.55,10.0,6.26
472,griffith,90,US,1603673808,61,41.53,-87.42,8.89,5.7
473,bandarbeyla,75,SO,1603673895,82,9.49,50.81,23.53,4.26
474,sanok,72,PL,1603673895,89,49.56,22.21,12.22,4.02
475,jalu,0,LY,1603673895,86,29.03,21.55,17.23,2.83
476,mehriz,0,IR,1603673895,25,31.59,54.43,12.0,2.1
477,hobyo,76,SO,1603673895,83,5.35,48.53,26.23,2.18
478,chongwe,0,ZM,1603673896,36,-15.33,28.68,19.65,0.87
479,misratah,72,LY,1603673896,63,32.38,15.09,21.96,3.65
480,comodoro rivadavia,16,BR,1603673896,84,-13.66,-59.79,22.71,2.6
481,preobrazheniye,0,RU,1603673864,51,42.9,133.91,10.23,1.64
482,belint,90,RO,1603673896,100,45.76,21.76,12.22,1.5
483,jeremie,100,HT,1603673896,77,18.65,-74.12,27.31,2.85
484,waren,100,DE,1603673896,88,53.52,12.68,11.11,3.0
485,duluth,40,US,1603673896,68,46.78,-92.11,-2.22,2.1
486,umea,100,SE,1603673896,100,63.83,20.26,9.0,5.7
487,sorland,75,NO,1603673896,86,67.67,12.69,5.0,4.6
488,arlit,0,NE,1603673706,18,18.74,7.39,24.06,3.49
489,olafsvik,99,IS,1603673897,81,64.89,-23.71,5.42,9.18
490,roald,94,NO,1603673897,53,62.58,6.13,11.0,3.6
491,aktau,90,KZ,1603673897,100,43.65,51.2,12.0,2.0
492,aleksandrov gay,100,RU,1603673897,95,56.4,38.71,6.09,2.1
493,shakhovskaya,100,RU,1603673897,83,56.03,35.51,6.96,1.92
494,ginda,20,IN,1603673897,76,30.69,78.49,14.0,1.5
495,atherton,86,GB,1603673897,88,53.52,-2.49,6.67,1.79
496,bull savanna,53,LR,1603673897,90,6.2,-10.28,24.63,1.36
497,wanning,100,CN,1603673898,89,18.8,110.4,25.63,6.63
498,tezu,0,IN,1603673898,66,27.92,96.17,23.51,0.89
499,hinche,96,HT,1603673898,70,19.15,-72.02,29.0,9.3
500,enterprise,20,US,1603673898,12,36.03,-115.24,23.0,12.3
501,dicabisagan,100,PH,1603673898,84,17.08,122.42,27.55,5.41
502,saskylakh,100,RU,1603673847,94,71.92,114.08,-13.2,4.57
503,baykit,100,RU,1603673898,94,61.67,96.37,-9.04,0.97
504,lakes entrance,90,US,1603673899,79,61.61,-149.31,2.22,7.7
505,salinopolis,96,BR,1603673899,81,-0.61,-47.36,27.09,4.99
506,mayo,90,US,1603673899,93,38.89,-76.51,11.11,3.6
507,bafoulabe,1,ML,1603673899,20,13.81,-10.83,25.73,0.96
508,hirtshals,8,DK,1603673899,95,57.59,9.96,9.44,0.89
509,kilindoni,9,TZ,1603673899,76,-7.91,39.67,26.02,4.28
510,santa catarina de tepehuanes,99,PH,1603673899,71,17.49,120.43,30.0,7.73
511,sarankhola,0,BD,1603673899,88,22.31,89.79,24.75,1.18
512,cuencame,5,MX,1603673899,28,24.87,-103.7,24.51,1.94
513,karera,0,IN,1603673874,30,25.47,78.15,21.32,0.98
514,ejura,3,GH,1603673900,79,7.39,-1.36,23.67,1.55
515,manado,20,ID,1603673816,66,1.49,124.85,30.0,0.5
516,namie,0,JP,1603673900,55,37.48,141.0,19.44,1.34
517,diffa,94,NE,1603673900,21,13.32,12.61,27.71,4.32
518,senneterre,90,CA,1603673900,91,48.38,-77.23,0.0,2.6
519,shieli,100,KZ,1603673900,51,44.17,66.75,7.56,3.85
520,kendari,68,ID,1603673849,57,-3.94,122.5,31.79,0.23
521,north branch,3,FR,1603673900,93,50.33,3.67,9.44,5.1
522,awjilah,0,LY,1603673900,87,29.11,21.29,17.26,2.58
523,nivala,100,FI,1603673900,96,63.92,24.97,3.33,4.02
524,galle,0,LK,1603673901,84,6.04,80.22,25.93,2.62
525,hull,0,GB,1603673901,87,53.74,-0.34,7.22,4.1
526,bubaque,0,GW,1603673901,80,11.28,-15.83,28.55,5.11
527,ocos,75,GT,1603673901,100,14.51,-92.19,25.0,3.1
528,ouadda,26,CF,1603673901,76,8.08,22.4,19.73,0.49
529,riyadh,0,SA,1603673837,42,24.69,46.72,18.0,3.09
530,guaymas,40,MX,1603673901,83,27.93,-110.9,29.0,7.7
531,ukiah,1,US,1603673901,25,39.15,-123.21,23.0,1.47
532,camamu,100,BR,1603673901,90,-13.94,-39.1,24.01,0.88
533,kholodnyy,83,RU,1603673902,90,62.72,147.95,-7.15,1.87
534,primo tapia,100,CH,1603673902,94,45.87,7.4,10.0,0.89
535,tourlaville,75,FR,1603673902,93,49.64,-1.57,8.0,3.6
536,vestmanna,13,FO,1603673902,81,62.16,-7.17,6.0,3.6
537,tingi,89,TZ,1603673902,82,-11.3,35.03,17.84,2.64
538,surskoye,0,RU,1603673902,91,54.48,46.72,0.99,2.81
539,najran,0,SA,1603673885,21,17.49,44.13,15.0,0.71
540,juegang,100,CN,1603673902,1,32.32,121.19,19.44,0.45
541,surt,88,LY,1603673902,71,31.21,16.59,21.77,3.76
542,poya,0,NC,1603673903,46,-21.35,165.15,28.89,2.25
543,san rafael,0,ML,1603673903,17,13.3,-4.9,26.51,3.04
544,mahina,40,PF,1603673903,70,-17.51,-149.49,29.0,2.6
545,ust-nera,46,RU,1603673903,87,64.57,143.2,-12.6,1.82
546,leh,100,IN,1603673903,81,34.17,77.58,-3.35,1.33
547,payakumbuh,100,ID,1603673903,70,-0.22,100.63,24.55,1.09
548,springville,75,US,1603673903,87,40.17,-111.61,0.0,7.7
